,altitude,availableBikes,availableDocks,city,id,landMark,lastCommunicationTime,latitude,location,longitude,postalCode,stAddress1,stAddress2,stationName,statusKey,statusValue,testStation,totalDocks
72,,12,27,,72,,2016-02-03 02:42:32 PM,40.76727216,,-73.99392888,,W 52 St & 11 Ave,,W 52 St & 11 Ave,1,In Service,False,39
79,,32,0,,79,,2016-02-03 02:46:06 PM,40.71911552,,-74.00666661,,Franklin St & W Broadway,,Franklin St & W Broadway,1,In Service,False,32
82,,12,14,,82,,2016-02-03 02:45:57 PM,40.71117416,,-74.00016545,,St James Pl & Pearl St,,St James Pl & Pearl St,1,In Service,False,26
83,,26,36,,83,,2016-02-03 02:42:48 PM,40.68382604,,-73.97632328,,Atlantic Ave & Fort Greene Pl,,Atlantic Ave & Fort Greene Pl,1,In Service,False,62
116,,30,9,,116,,2016-02-03 02:42:57 PM,40.74177603,,-74.00149746,,W 17 St & 8 Ave,,W 17 St & 8 Ave,1,In Service,False,39
119,,8,11,,119,,2016-02-03 02:44:56 PM,40.69608941,,-73.97803415,,Park Ave & St Edwards St,,Park Ave & St Edwards St,1,In Service,False,19
120,,2,17,,120,,2016-02-03 02:43:12 PM,40.68676793,,-73.95928168,,Lexington Ave & Classon Ave,,Lexington Ave & Classon Ave,1,In Service,False,19
127,,17,12,,127,,2016-02-03 02:43:41 PM,40.73172428,,-74.00674436,,Barrow St & Hudson St,,Barrow St & Hudson St,1,In Service,False,29
128,,28,1,,128,,2016-02-03 02:46:21 PM,40.72710258,,-74.00297088,,MacDougal St & Prince St,,MacDougal St & Prince St,1,In Service,False,29
137,,33,13,,137,,2016-02-03 02:44:17 PM,40.761628,,-73.972924,,E 56 St & Madison Ave,,E 56 St & Madison Ave,1,In Service,False,46
143,,6,18,,143,,2016-02-03 02:45:20 PM,40.69239502,,-73.99337909,,Clinton St & Joralemon St,,Clinton St & Joralemon St,1,In Service,False,24
144,,4,15,,144,,2016-02-03 02:43:10 PM,40.69839895,,-73.98068914,,Nassau St & Navy St,,Nassau St & Navy St,1,In Service,False,19
146,,37,1,,146,,2016-02-03 02:44:01 PM,40.71625008,,-74.0091059,,Hudson St & Reade St,,Hudson St & Reade St,1,In Service,False,38
147,,14,19,,147,,2016-02-03 02:44:51 PM,40.71542197,,-74.01121978,,Greenwich St & Warren St,,Greenwich St & Warren St,1,In Service,False,33
150,,0,31,,150,,2016-02-03 02:43:18 PM,40.7208736,,-73.98085795,,E 2 St & Avenue C,,E 2 St & Avenue C,1,In Service,False,31
151,,0,30,,151,,2016-02-03 02:45:15 PM,40.7221037867,,-73.9972490072,,Cleveland Pl & Spring St,,Cleveland Pl & Spring St,1,In Service,False,30
152,,0,29,,152,,2016-02-03 02:44:27 PM,40.71473993,,-74.00910627,,Warren St & Church St,,Warren St & Church St,1,In Service,False,29
153,,22,32,,153,,2016-02-03 02:44:24 PM,40.752062307,,-73.9816324043,,E 40 St & 5 Ave,,E 40 St & 5 Ave,1,In Service,False,54
157,,6,16,,157,,2016-02-03 02:43:03 PM,40.69089272,,-73.99612349,,Henry St & Atlantic Ave,,Henry St & Atlantic Ave,1,In Service,False,22
160,,1,25,,160,,2016-02-03 02:42:49 PM,40.748238,,-73.978311,,E 37 St & Lexington Ave,,E 37 St & Lexington Ave,1,In Service,False,26
161,,34,1,,161,,2016-02-03 02:46:16 PM,40.72917025,,-73.99810231,,LaGuardia Pl & W 3 St,,LaGuardia Pl & W 3 St,1,In Service,False,35
164,,23,23,,164,,2016-02-03 02:46:01 PM,40.75323098,,-73.97032517,,E 47 St & 2 Ave,,E 47 St & 2 Ave,1,In Service,False,46
167,,24,21,,167,,2016-02-03 02:43:53 PM,40.7489006,,-73.97604882,,E 39 St & 3 Ave,,E 39 St & 3 Ave,1,In Service,False,45
168,,42,4,,168,,2016-02-03 02:43:49 PM,40.73971301,,-73.99456405,,W 18 St & 6 Ave,,W 18 St & 6 Ave,1,In Service,False,46
173,,21,29,,173,,2016-02-03 02:46:24 PM,40.760683271,,-73.9845272899,,Broadway & W 49 St,,Broadway & W 49 St,1,In Service,False,50
174,,22,7,,174,,2016-02-03 02:44:41 PM,40.7381765,,-73.97738662,,E 25 St & 1 Ave,,E 25 St & 1 Ave,1,In Service,False,29
195,,44,1,,195,,2016-02-03 02:44:27 PM,40.70905623,,-74.01043382,,Liberty St & Broadway,,Liberty St & Broadway,1,In Service,False,45
212,,25,1,,212,,2016-02-03 02:43:51 PM,40.74334935,,-74.00681753,,W 16 St & The High Line,,W 16 St & The High Line,1,In Service,False,26
216,,14,9,,216,,2016-02-03 02:43:38 PM,40.70037867,,-73.99548059,,Columbia Heights & Cranberry St,,Columbia Heights & Cranberry St,1,In Service,False,23
217,,24,15,,217,,2016-02-03 02:46:18 PM,40.70277159,,-73.99383605,,Old Fulton St,,Old Fulton St,1,In Service,False,39
223,,31,0,,223,,2016-02-03 02:46:05 PM,40.73781509,,-73.99994661,,W 13 St & 7 Ave,,W 13 St & 7 Ave,1,In Service,False,31
224,,18,13,,224,,2016-02-03 02:46:24 PM,40.71146364,,-74.00552427,,Spruce St & Nassau St,,Spruce St & Nassau St,1,In Service,False,31
225,,34,2,,225,,2016-02-03 02:46:01 PM,40.74195138,,-74.00803013,,W 14 St & The High Line,,W 14 St & The High Line,1,In Service,False,36
228,,24,31,,228,,2016-02-03 02:46:25 PM,40.7546011026,,-73.971878855,,E 48 St & 3 Ave,,E 48 St & 3 Ave,1,In Service,False,55
229,,22,1,,229,,2016-02-03 02:44:31 PM,40.72743423,,-73.99379025,,Great Jones St,,Great Jones St,1,In Service,False,23
232,,5,18,,232,,2016-02-03 02:46:10 PM,40.69597683,,-73.99014892,,Cadman Plaza E & Tillary St,,Cadman Plaza E & Tillary St,1,In Service,False,23
233,,16,22,,233,,2016-02-03 02:46:29 PM,40.6947570136,,-73.9905273914,,Cadman Plaza W & Pierrepont St,,Cadman Plaza W & Pierrepont St,1,In Service,False,38
236,,3,36,,236,,2016-02-03 02:45:04 PM,40.7284186,,-73.98713956,,St Marks Pl & 2 Ave,,St Marks Pl & 2 Ave,1,In Service,False,39
237,,3,35,,237,,2016-02-03 02:45:37 PM,40.73047309,,-73.98672378,,E 11 St & 2 Ave,,E 11 St & 2 Ave,1,In Service,False,38
238,,15,15,,238,,2016-02-03 02:44:46 PM,40.7361967,,-74.00859207,,Bank St & Washington St,,Bank St & Washington St,1,In Service,False,30
239,,16,15,,239,,2016-02-03 02:44:06 PM,40.69196566,,-73.9813018,,Willoughby St & Fleet St,,Willoughby St & Fleet St,1,In Service,False,31
241,,12,11,,241,,2016-02-03 02:43:34 PM,40.68981035,,-73.97493121,,DeKalb Ave & S Portland Ave,,DeKalb Ave & S Portland Ave,1,In Service,False,23
242,,18,4,,242,,2016-02-03 02:46:12 PM,40.697787,,-73.973736,,Carlton Ave & Flushing Ave,,Carlton Ave & Flushing Ave,1,In Service,False,22
243,,20,11,,243,,2016-02-03 02:45:14 PM,40.688226,,-73.979382,,Fulton St & Rockwell Pl,,Fulton St & Rockwell Pl,1,In Service,False,31
244,,3,28,,244,,2016-02-03 02:44:43 PM,40.69196035,,-73.96536851,,Willoughby Ave & Hall St,,Willoughby Ave & Hall St,1,In Service,False,31
245,,5,18,,245,,2016-02-03 02:44:02 PM,40.69327018,,-73.97703874,,Myrtle Ave & St Edwards St,,Myrtle Ave & St Edwards St,1,In Service,False,23
247,,8,12,,247,,2016-02-03 02:45:09 PM,40.73535398,,-74.00483091,,Perry St & Bleecker St,,Perry St & Bleecker St,1,In Service,False,20
248,,13,9,,248,,2016-02-03 02:45:51 PM,40.72185379,,-74.00771779,,Laight St & Hudson St,,Laight St & Hudson St,1,In Service,False,22
249,,24,3,,249,,2016-02-03 02:46:07 PM,40.71870987,,-74.0090009,,Harrison St & Hudson St,,Harrison St & Hudson St,1,In Service,False,27
250,,33,3,,250,,2016-02-03 02:43:31 PM,40.72456089,,-73.99565293,,Lafayette St & Jersey St,,Lafayette St & Jersey St,1,In Service,False,36
251,,13,13,,251,,2016-02-03 02:45:53 PM,40.72317958,,-73.99480012,,Mott St & Prince St,,Mott St & Prince St,1,In Service,False,26
252,,32,0,,252,,2016-02-03 02:46:27 PM,40.73226398,,-73.99852205,,MacDougal St & Washington Sq,,MacDougal St & Washington Sq,1,In Service,False,32
253,,40,14,,253,,2016-02-03 02:42:44 PM,40.73543934,,-73.99453948,,W 13 St & 5 Ave,,W 13 St & 5 Ave,1,In Service,False,54
254,,15,15,,254,,2016-02-03 02:44:50 PM,40.73532427,,-73.99800419,,W 11 St & 6 Ave,,W 11 St & 6 Ave,1,In Service,False,30
257,,36,3,,257,,2016-02-03 02:42:55 PM,40.71939226,,-74.00247214,,Lispenard St & Broadway,,Lispenard St & Broadway,1,In Service,False,39
258,,5,18,,258,,2016-02-03 02:45:29 PM,40.68940747,,-73.96885458,,DeKalb Ave & Vanderbilt Ave,,DeKalb Ave & Vanderbilt Ave,1,In Service,False,23
259,,33,4,,259,,2016-02-03 02:43:37 PM,40.70122128,,-74.01234218,,South St & Whitehall St,,South St & Whitehall St,1,In Service,False,37
260,,28,7,,260,,2016-02-03 02:43:31 PM,40.70365182,,-74.01167797,,Broad St & Bridge St,,Broad St & Bridge St,1,In Service,False,35
261,,14,13,,261,,2016-02-03 02:44:00 PM,40.69474881,,-73.98362464,,Johnson St & Gold St,,Johnson St & Gold St,1,In Service,False,27
262,,6,18,,262,,2016-02-03 02:42:47 PM,40.6917823,,-73.9737299,,Washington Park,,Washington Park,1,In Service,False,24
263,,23,8,,263,,2016-02-03 02:45:57 PM,40.71729,,-73.996375,,Elizabeth St & Hester St,,Elizabeth St & Hester St,1,In Service,False,31
264,,17,10,,264,,2016-02-03 02:45:36 PM,40.70706456,,-74.00731853,,Maiden Ln & Pearl St,,Maiden Ln & Pearl St,1,In Service,False,27
265,,19,15,,265,,2016-02-03 02:43:01 PM,40.72229346,,-73.99147535,,Stanton St & Chrystie St,,Stanton St & Chrystie St,1,In Service,False,34
266,,0,23,,266,,2016-02-03 02:45:39 PM,40.72368361,,-73.97574813,,Avenue D & E 8 St,,Avenue D & E 8 St,1,In Service,False,23
267,,6,51,,267,,2016-02-03 02:45:33 PM,40.75097711,,-73.98765428,,Broadway & W 36 St,,Broadway & W 36 St,1,In Service,False,57
268,,26,1,,268,,2016-02-03 02:43:18 PM,40.71910537,,-73.99973337,,Howard St & Centre St,,Howard St & Centre St,1,In Service,False,27
270,,10,13,,270,,2016-02-03 02:46:01 PM,40.69308257,,-73.97178913,,Adelphi St & Myrtle Ave,,Adelphi St & Myrtle Ave,1,In Service,False,23
274,,21,10,,274,,2016-02-03 02:45:42 PM,40.68691865,,-73.976682,,Lafayette Ave & Fort Greene Pl,,Lafayette Ave & Fort Greene Pl,1,In Service,False,31
275,,2,17,,275,,2016-02-03 02:45:19 PM,40.68650065,,-73.96563307,,Washington Ave & Greene Ave,,Washington Ave & Greene Ave,1,In Service,False,19
276,,20,4,,276,,2016-02-03 02:46:01 PM,40.71748752,,-74.0104554,,Duane St & Greenwich St,,Duane St & Greenwich St,1,In Service,False,24
278,,10,9,,278,,2016-02-03 02:44:42 PM,40.69766564,,-73.98476437,,Concord St & Bridge St,,Concord St & Bridge St,1,In Service,False,19
279,,0,35,,279,,2016-02-03 02:42:32 PM,40.707873,,-74.00167,,Peck Slip & Front St,,Peck Slip & Front St,1,In Service,False,35
280,,22,9,,280,,2016-02-03 02:45:29 PM,40.73331967,,-73.99510132,,E 10 St & 5 Ave,,E 10 St & 5 Ave,1,In Service,False,31
281,,34,23,,281,,2016-02-03 02:45:40 PM,40.7643971,,-73.97371465,,Grand Army Plaza & Central Park S,,Grand Army Plaza & Central Park S,1,In Service,False,57
282,,2,24,,282,,2016-02-03 02:45:28 PM,40.70827295,,-73.96834101,,Kent Ave & S 11 St,,Kent Ave & S 11 St,1,In Service,False,26
284,,28,14,,284,,2016-02-03 02:44:33 PM,40.7390169121,,-74.0026376103,,Greenwich Ave & 8 Ave,,Greenwich Ave & 8 Ave,1,In Service,False,42
285,,29,18,,285,,2016-02-03 02:44:00 PM,40.73454567,,-73.99074142,,Broadway & E 14 St,,Broadway & E 14 St,1,In Service,False,47
289,,5,14,,289,,2016-02-03 02:42:38 PM,40.6845683,,-73.95881081,,Monroe St & Classon Ave,,Monroe St & Classon Ave,1,In Service,False,19
291,,7,13,,291,,2016-02-03 02:44:09 PM,40.713126,,-73.984844,,Madison St & Montgomery St,,Madison St & Montgomery St,1,In Service,False,20
293,,44,9,,293,,2016-02-03 02:46:24 PM,40.73028666,,-73.9907647,,Lafayette St & E 8 St,,Lafayette St & E 8 St,1,In Service,False,53
295,,0,23,,295,,2016-02-03 02:42:43 PM,40.71406667,,-73.99293911,,Pike St & E Broadway,,Pike St & E Broadway,1,In Service,False,23
296,,26,9,,296,,2016-02-03 02:43:20 PM,40.71413089,,-73.9970468,,Division St & Bowery,,Division St & Bowery,1,In Service,False,35
297,,13,14,,297,,2016-02-03 02:44:16 PM,40.734232,,-73.986923,,E 15 St & 3 Ave,,E 15 St & 3 Ave,1,In Service,False,27
298,,18,17,,298,,2016-02-03 02:43:20 PM,40.68683208,,-73.9796772,,3 Ave & Schermerhorn St,,3 Ave & Schermerhorn St,1,In Service,False,35
300,,10,44,,300,,2016-02-03 02:43:58 PM,40.728145,,-73.990214,,Shevchenko Pl & E 7 St,,Shevchenko Pl & E 7 St,1,In Service,False,54
301,,3,34,,301,,2016-02-03 02:46:13 PM,40.72217444,,-73.98368779,,E 2 St & Avenue B,,E 2 St & Avenue B,1,In Service,False,37
302,,3,20,,302,,2016-02-03 02:42:55 PM,40.72082834,,-73.97793172,,Avenue D & E 3 St,,Avenue D & E 3 St,1,In Service,False,23
303,,7,23,,303,,2016-02-03 02:44:56 PM,40.72362738,,-73.99949601,,Mercer St & Spring St,,Mercer St & Spring St,1,In Service,False,30
304,,30,4,,304,,2016-02-03 02:44:42 PM,40.70463334,,-74.01361706,,Broadway & Battery Pl,,Broadway & Battery Pl,1,In Service,False,34
305,,25,8,,305,,2016-02-03 02:45:51 PM,40.76095756,,-73.96724467,,E 58 St & 3 Ave,,E 58 St & 3 Ave,1,In Service,False,33
306,,36,1,,306,,2016-02-03 02:45:27 PM,40.70823502,,-74.00530063,,Cliff St & Fulton St,,Cliff St & Fulton St,1,In Service,False,37
307,,9,20,,307,,2016-02-03 02:43:54 PM,40.71427487,,-73.98990025,,Canal St & Rutgers St,,Canal St & Rutgers St,1,In Service,False,29
308,,7,20,,308,,2016-02-03 02:42:40 PM,40.71307916,,-73.99851193,,St James Pl & Oliver St,,St James Pl & Oliver St,1,In Service,False,27
309,,30,11,,309,,2016-02-03 02:45:15 PM,40.7149787,,-74.013012,,Murray St & West St,,Murray St & West St,1,In Service,False,41
310,,16,20,,310,,2016-02-03 02:45:11 PM,40.68926942,,-73.98912867,,State St & Smith St,,State St & Smith St,1,In Service,False,36
311,,11,20,,311,,2016-02-03 02:45:48 PM,40.7172274,,-73.98802084,,Norfolk St & Broome St,,Norfolk St & Broome St,1,In Service,False,31
312,,8,23,,312,,2016-02-03 02:42:35 PM,40.722055,,-73.989111,,Allen St & E Houston St,,Allen St & E Houston St,1,In Service,False,31
313,,18,3,,313,,2016-02-03 02:44:38 PM,40.69610226,,-73.96751037,,Washington Ave & Park Ave,,Washington Ave & Park Ave,1,In Service,False,21
314,,19,18,,314,,2016-02-03 02:43:59 PM,40.69383,,-73.990539,,Cadman Plaza West & Montague St,,Cadman Plaza West & Montague St,1,In Service,False,37
315,,29,0,,315,,2016-02-03 02:44:59 PM,40.70355377,,-74.00670227,,South St & Gouverneur Ln,,South St & Gouverneur Ln,1,In Service,False,29
316,,24,19,,316,,2016-02-03 02:46:25 PM,40.70955958,,-74.00653609,,Fulton St & William St,,Fulton St & William St,1,In Service,False,43
317,,0,27,,317,,2016-02-03 02:43:15 PM,40.72453734,,-73.98185424,,E 6 St & Avenue B,,E 6 St & Avenue B,1,In Service,False,27
319,,29,3,,319,,2016-02-03 02:45:23 PM,40.711066,,-74.009447,,Fulton St & Broadway,,Fulton St & Broadway,1,In Service,False,32
320,,36,3,,320,,2016-02-03 02:44:40 PM,40.717571,,-74.005549,,Leonard St & Church St,,Leonard St & Church St,1,In Service,False,39
321,,16,11,,321,,2016-02-03 02:42:55 PM,40.69991755,,-73.98971773,,Cadman Plaza E & Red Cross Pl,,Cadman Plaza E & Red Cross Pl,1,In Service,False,27
322,,5,26,,322,,2016-02-03 02:45:58 PM,40.696192,,-73.991218,,Clinton St & Tillary St,,Clinton St & Tillary St,1,In Service,False,31
323,,17,21,,323,,2016-02-03 02:44:22 PM,40.69236178,,-73.98631746,,Lawrence St & Willoughby St,,Lawrence St & Willoughby St,1,In Service,False,38
324,,43,6,,324,,2016-02-03 02:43:28 PM,40.689888,,-73.981013,,DeKalb Ave & Hudson Ave,,DeKalb Ave & Hudson Ave,1,In Service,False,49
325,,29,6,,325,,2016-02-03 02:45:09 PM,40.73624527,,-73.98473765,,E 19 St & 3 Ave,,E 19 St & 3 Ave,1,In Service,False,35
326,,1,26,,326,,2016-02-03 02:45:44 PM,40.72953837,,-73.98426726,,E 11 St & 1 Ave,,E 11 St & 1 Ave,1,In Service,False,27
327,,19,20,,327,,2016-02-03 02:44:10 PM,40.7153379,,-74.01658354,,Vesey Pl & River Terrace,,Vesey Pl & River Terrace,1,In Service,False,39
328,,12,10,,328,,2016-02-03 02:42:57 PM,40.72405549,,-74.00965965,,Watts St & Greenwich St,,Watts St & Greenwich St,1,In Service,False,22
329,,30,1,,329,,2016-02-03 02:46:08 PM,40.72043411,,-74.01020609,,Greenwich St & N Moore St,,Greenwich St & N Moore St,1,In Service,False,31
330,,30,8,,330,,2016-02-03 02:45:57 PM,40.71450451,,-74.00562789,,Reade St & Broadway,,Reade St & Broadway,1,In Service,False,38
331,,1,26,,331,,2016-02-03 02:42:59 PM,40.71173107,,-73.99193043,,Pike St & Monroe St,,Pike St & Monroe St,1,In Service,False,27
332,,3,20,,332,,2016-02-03 02:46:01 PM,40.71219906,,-73.97948148,,Cherry St,,Cherry St,1,In Service,False,23
334,,10,20,,334,,2016-02-03 02:45:59 PM,40.74238787,,-73.99726235,,W 20 St & 7 Ave,,W 20 St & 7 Ave,1,In Service,False,30
335,,25,2,,335,,2016-02-03 02:44:05 PM,40.72903917,,-73.99404649,,Washington Pl & Broadway,,Washington Pl & Broadway,1,In Service,False,27
336,,36,0,,336,,2016-02-03 02:44:48 PM,40.73047747,,-73.99906065,,Sullivan St & Washington Sq,,Sullivan St & Washington Sq,1,In Service,False,36
337,,35,2,,337,,2016-02-03 02:44:00 PM,40.7037992,,-74.00838676,,Old Slip & Front St,,Old Slip & Front St,1,In Service,False,37
339,,2,22,,339,,2016-02-03 02:44:52 PM,40.72580614,,-73.97422494,,Avenue D & E 12 St,,Avenue D & E 12 St,1,In Service,False,24
340,,10,17,,340,,2016-02-03 02:45:16 PM,40.71269042,,-73.98776323,,Madison St & Clinton St,,Madison St & Clinton St,1,In Service,False,27
341,,8,11,,341,,2016-02-03 02:44:31 PM,40.71782143,,-73.97628939,,Stanton St & Mangin St,,Stanton St & Mangin St,1,In Service,False,19
342,,3,25,,342,,2016-02-03 02:44:57 PM,40.71739973,,-73.98016555,,Columbia St & Rivington St,,Columbia St & Rivington St,1,In Service,False,28
343,,18,5,,343,,2016-02-03 02:43:23 PM,40.69794,,-73.96986848,,Clinton Ave & Flushing Ave,,Clinton Ave & Flushing Ave,1,In Service,False,23
344,,1,22,,344,,2016-02-03 02:44:36 PM,40.6851443,,-73.95380904,,Monroe St & Bedford Ave,,Monroe St & Bedford Ave,1,In Service,False,23
345,,33,1,,345,,2016-02-03 02:42:44 PM,40.73649403,,-73.99704374,,W 13 St & 6 Ave,,W 13 St & 6 Ave,1,In Service,False,34
346,,14,12,,346,,2016-02-03 02:43:40 PM,40.73652889,,-74.00618026,,Bank St & Hudson St,,Bank St & Hudson St,1,In Service,False,26
347,,34,0,,347,,2016-02-03 02:42:52 PM,40.728846,,-74.008591,,Greenwich St & W Houston St,,Greenwich St & W Houston St,1,In Service,False,34
348,,27,15,,348,,2016-02-03 02:44:04 PM,40.72490985,,-74.00154702,,W Broadway & Spring St,,W Broadway & Spring St,1,In Service,False,42
350,,2,25,,350,,2016-02-03 02:45:23 PM,40.71559509,,-73.9870295,,Clinton St & Grand St,,Clinton St & Grand St,1,In Service,False,27
351,,35,4,,351,,2016-02-03 02:45:45 PM,40.70530954,,-74.00612572,,Front St & Maiden Ln,,Front St & Maiden Ln,1,In Service,False,39
352,,21,15,,352,,2016-02-03 02:43:07 PM,40.76340613,,-73.97722479,,W 56 St & 6 Ave,,W 56 St & 6 Ave,1,In Service,False,36
353,,4,23,,353,,2016-02-03 02:42:44 PM,40.68539567,,-73.97431458,,S Portland Ave & Hanson Pl,,S Portland Ave & Hanson Pl,1,In Service,False,27
354,,8,15,,354,,2016-02-03 02:43:10 PM,40.69363137,,-73.96223558,,Emerson Pl & Myrtle Ave,,Emerson Pl & Myrtle Ave,1,In Service,False,23
355,,35,8,,355,,2016-02-03 02:44:52 PM,40.71602118,,-73.99974372,,Bayard St & Baxter St,,Bayard St & Baxter St,1,In Service,False,43
356,,1,22,,356,,2016-02-03 02:43:03 PM,40.71622644,,-73.98261206,,Bialystoker Pl & Delancey St,,Bialystoker Pl & Delancey St,1,In Service,False,23
357,,7,20,,357,,2016-02-03 02:46:16 PM,40.73261787,,-73.99158043,,E 11 St & Broadway,,E 11 St & Broadway,1,In Service,False,27
358,,9,26,,358,,2016-02-03 02:45:59 PM,40.73291553,,-74.00711384,,Christopher St & Greenwich St,,Christopher St & Greenwich St,1,In Service,False,35
359,,42,12,,359,,2016-02-03 02:43:56 PM,40.75510267,,-73.97498696,,E 47 St & Park Ave,,E 47 St & Park Ave,1,In Service,False,54
360,,38,1,,360,,2016-02-03 02:43:01 PM,40.70717936,,-74.00887308,,William St & Pine St,,William St & Pine St,1,In Service,False,39
361,,14,28,,361,,2016-02-03 02:42:32 PM,40.71605866,,-73.99190759,,Allen St & Hester St,,Allen St & Hester St,1,In Service,False,42
362,,4,51,,362,,2016-02-03 02:42:39 PM,40.75172632,,-73.98753523,,Broadway & W 37 St,,Broadway & W 37 St,1,In Service,False,55
363,,21,27,,363,,2016-02-03 02:44:33 PM,40.70834698,,-74.01713445,,West Thames St,,West Thames St,1,In Service,False,48
364,,10,17,,364,,2016-02-03 02:43:58 PM,40.68900443,,-73.96023854,,Lafayette Ave & Classon Ave,,Lafayette Ave & Classon Ave,1,In Service,False,27
365,,3,28,,365,,2016-02-03 02:42:57 PM,40.68223166,,-73.9614583,,Fulton St & Grand Ave,,Fulton St & Grand Ave,1,In Service,False,31
366,,13,20,,366,,2016-02-03 02:46:22 PM,40.693261,,-73.968896,,Clinton Ave & Myrtle Ave,,Clinton Ave & Myrtle Ave,1,In Service,False,33
367,,24,10,,367,,2016-02-03 02:43:58 PM,40.75828065,,-73.97069431,,E 53 St & Lexington Ave,,E 53 St & Lexington Ave,1,In Service,False,34
368,,34,5,,368,,2016-02-03 02:43:58 PM,40.73038599,,-74.00214988,,Carmine St & 6 Ave,,Carmine St & 6 Ave,1,In Service,False,39
369,,30,5,,369,,2016-02-03 02:42:36 PM,40.73224119,,-74.00026394,,Washington Pl & 6 Ave,,Washington Pl & 6 Ave,1,In Service,False,35
372,,12,15,,372,,2016-02-03 02:43:26 PM,40.694528,,-73.958089,,Franklin Ave & Myrtle Ave,,Franklin Ave & Myrtle Ave,1,In Service,False,27
373,,1,18,,373,,2016-02-03 02:42:54 PM,40.69331716,,-73.95381995,,Willoughby Ave & Walworth St,,Willoughby Ave & Walworth St,1,In Service,False,19
375,,3,24,,375,,2016-02-03 02:43:52 PM,40.72679454,,-73.99695094,,Mercer St & Bleecker St,,Mercer St & Bleecker St,1,In Service,False,27
376,,26,17,,376,,2016-02-03 02:44:11 PM,40.70862144,,-74.00722156,,John St & William St,,John St & William St,1,In Service,False,43
377,,31,16,,377,,2016-02-03 02:43:50 PM,40.72243797,,-74.00566443,,6 Ave & Canal St,,6 Ave & Canal St,1,In Service,False,47
379,,5,35,,379,,2016-02-03 02:44:19 PM,40.749156,,-73.9916,,W 31 St & 7 Ave,,W 31 St & 7 Ave,1,In Service,False,40
380,,8,31,,380,,2016-02-03 02:45:28 PM,40.73401143,,-74.00293877,,W 4 St & 7 Ave S,,W 4 St & 7 Ave S,1,In Service,False,39
382,,25,10,,382,,2016-02-03 02:44:43 PM,40.73492695,,-73.99200509,,University Pl & E 14 St,,University Pl & E 14 St,1,In Service,False,35
383,,19,20,,383,,2016-02-03 02:45:51 PM,40.735238,,-74.000271,,Greenwich Ave & Charles St,,Greenwich Ave & Charles St,1,In Service,False,39
384,,5,25,,384,,2016-02-03 02:44:03 PM,40.683048,,-73.964915,,Fulton St & Washington Ave,,Fulton St & Washington Ave,1,In Service,False,30
385,,3,26,,385,,2016-02-03 02:42:51 PM,40.75797322,,-73.96603308,,E 55 St & 2 Ave,,E 55 St & 2 Ave,1,In Service,False,29
386,,28,13,,386,,2016-02-03 02:43:36 PM,40.71494807,,-74.00234482,,Centre St & Worth St,,Centre St & Worth St,1,In Service,False,41
387,,26,13,,387,,2016-02-03 02:44:45 PM,40.71273266,,-74.0046073,,Centre St & Chambers St,,Centre St & Chambers St,1,In Service,False,39
388,,33,1,,388,,2016-02-03 02:42:56 PM,40.749717753,,-74.002950346,,W 26 St & 10 Ave,,W 26 St & 10 Ave,1,In Service,False,35
389,,12,15,,389,,2016-02-03 02:46:05 PM,40.71044554,,-73.96525063,,Broadway & Berry St,,Broadway & Berry St,1,In Service,False,27
390,,27,3,,390,,2016-02-03 02:44:31 PM,40.69221589,,-73.9842844,,Duffield St & Willoughby St,,Duffield St & Willoughby St,1,In Service,False,30
391,,15,15,,391,,2016-02-03 02:42:46 PM,40.69760127,,-73.99344559,,Clark St & Henry St,,Clark St & Henry St,1,In Service,False,30
392,,12,20,,392,,2016-02-03 02:44:53 PM,40.695065,,-73.987167,,Jay St & Tech Pl,,Jay St & Tech Pl,1,In Service,False,32
393,,0,31,,393,,2016-02-03 02:44:50 PM,40.72299208,,-73.97995466,,E 5 St & Avenue C,,E 5 St & Avenue C,1,In Service,False,31
394,,1,29,,394,,2016-02-03 02:45:28 PM,40.72521311,,-73.97768752,,E 9 St & Avenue C,,E 9 St & Avenue C,1,In Service,False,30
395,,22,8,,395,,2016-02-03 02:34:14 PM,40.68807003,,-73.98410637,,Bond St & Schermerhorn St,,Bond St & Schermerhorn St,1,In Service,False,30
396,,6,19,,396,,2016-02-03 02:45:57 PM,40.680342423,,-73.9557689392,,Lefferts Pl & Franklin Ave,,Lefferts Pl & Franklin Ave,1,In Service,False,25
397,,12,15,,397,,2016-02-03 02:44:55 PM,40.68415748,,-73.96922273,,Fulton St & Clermont Ave,,Fulton St & Clermont Ave,1,In Service,False,27
398,,9,22,,398,,2016-02-03 02:44:15 PM,40.69165183,,-73.9999786,,Atlantic Ave & Furman St,,Atlantic Ave & Furman St,1,In Service,False,31
399,,12,15,,399,,2016-02-03 02:43:14 PM,40.68851534,,-73.9647628,,Lafayette Ave & St James Pl,,Lafayette Ave & St James Pl,1,In Service,False,27
400,,3,11,,400,,2016-02-03 02:43:46 PM,40.71926081,,-73.98178024,,Pitt St & Stanton St,,Pitt St & Stanton St,1,In Service,False,14
401,,2,39,,401,,2016-02-03 02:44:37 PM,40.72019576,,-73.98997825,,Allen St & Rivington St,,Allen St & Rivington St,1,In Service,False,42
402,,40,2,,402,,2016-02-03 02:44:51 PM,40.7403432,,-73.98955109,,Broadway & E 22 St,,Broadway & E 22 St,1,In Service,False,42
403,,11,20,,403,,2016-02-03 02:46:28 PM,40.72502876,,-73.99069656,,E 2 St & 2 Ave,,E 2 St & 2 Ave,1,In Service,False,31
405,,13,27,,405,,2016-02-03 02:43:08 PM,40.739323,,-74.008119,,Washington St & Gansevoort St,,Washington St & Gansevoort St,1,In Service,False,40
406,,4,30,,406,,2016-02-03 02:45:13 PM,40.69512845,,-73.99595065,,Hicks St & Montague St,,Hicks St & Montague St,1,In Service,False,34
407,,9,28,,407,,2016-02-03 02:43:46 PM,40.700469,,-73.991454,,Henry St & Poplar St,,Henry St & Poplar St,1,In Service,False,37
408,,5,18,,408,,2016-02-03 02:46:03 PM,40.71076228,,-73.99400398,,Market St & Cherry St,,Market St & Cherry St,1,In Service,False,23
409,,7,12,,409,,2016-02-03 02:44:47 PM,40.6906495,,-73.95643107,,DeKalb Ave & Skillman St,,DeKalb Ave & Skillman St,1,In Service,False,19
410,,9,26,,410,,2016-02-03 02:44:40 PM,40.72066442,,-73.98517977,,Suffolk St & Stanton St,,Suffolk St & Stanton St,1,In Service,False,35
411,,4,19,,411,,2016-02-03 02:45:09 PM,40.72228087,,-73.97668709,,E 6 St & Avenue D,,E 6 St & Avenue D,1,In Service,False,23
412,,7,22,,412,,2016-02-03 02:45:24 PM,40.7158155,,-73.99422366,,Forsyth St & Canal St,,Forsyth St & Canal St,1,In Service,False,29
414,,8,15,,414,,2016-02-03 02:42:34 PM,40.70281858,,-73.98765762,,Pearl St & Anchorage Pl,,Pearl St & Anchorage Pl,1,In Service,False,23
415,,24,18,,415,,2016-02-03 02:44:01 PM,40.7047177,,-74.00926027,,Pearl St & Hanover Square,,Pearl St & Hanover Square,1,In Service,False,42
416,,9,22,,416,,2016-02-03 02:43:43 PM,40.68753406,,-73.97265183,,Cumberland St & Lafayette Ave,,Cumberland St & Lafayette Ave,1,In Service,False,31
417,,8,14,,417,,2016-02-03 02:44:46 PM,40.71291224,,-74.01020234,,Barclay St & Church St,,Barclay St & Church St,1,In Service,False,22
418,,19,4,,418,,2016-02-03 02:42:56 PM,40.70224,,-73.982578,,Front St & Gold St,,Front St & Gold St,1,In Service,False,23
419,,8,15,,419,,2016-02-03 02:45:51 PM,40.69580705,,-73.97355569,,Carlton Ave & Park Ave,,Carlton Ave & Park Ave,1,In Service,False,23
420,,1,22,,420,,2016-02-03 02:42:36 PM,40.68764484,,-73.96968902,,Clermont Ave & Lafayette Ave,,Clermont Ave & Lafayette Ave,1,In Service,False,23
421,,1,18,,421,,2016-02-03 02:44:43 PM,40.69573398,,-73.97129668,,Clermont Ave & Park Ave,,Clermont Ave & Park Ave,1,In Service,False,19
422,,0,55,,422,,2016-02-03 02:42:39 PM,40.770513,,-73.988038,,W 59 St & 10 Ave,,W 59 St & 10 Ave,1,In Service,False,55
426,,22,8,,426,,2016-02-03 02:45:10 PM,40.71754834,,-74.01322069,,West St & Chambers St,,West St & Chambers St,1,In Service,False,30
427,,46,0,,427,,2016-02-03 02:45:34 PM,40.701907,,-74.013942,,Bus Slip & State St,,Bus Slip & State St,1,In Service,False,46
428,,4,25,,428,,2016-02-03 02:43:53 PM,40.72467721,,-73.98783413,,E 3 St & 1 Ave,,E 3 St & 1 Ave,1,In Service,False,29
430,,26,0,,430,,2016-02-03 02:45:20 PM,40.7014851,,-73.98656928,,York St & Jay St,,York St & Jay St,1,In Service,False,26
432,,2,28,,432,,2016-02-03 02:46:12 PM,40.72621788,,-73.98379855,,E 7 St & Avenue A,,E 7 St & Avenue A,1,In Service,False,30
433,,4,35,,433,,2016-02-03 02:45:43 PM,40.72955361,,-73.98057249,,E 13 St & Avenue A,,E 13 St & Avenue A,1,In Service,False,39
434,,27,0,,434,,2016-02-03 02:42:48 PM,40.74317449,,-74.00366443,,9 Ave & W 18 St,,9 Ave & W 18 St,1,In Service,False,27
435,,39,7,,435,,2016-02-03 02:43:20 PM,40.74173969,,-73.99415556,,W 21 St & 6 Ave,,W 21 St & 6 Ave,1,In Service,False,46
436,,2,25,,436,,2016-02-03 02:45:54 PM,40.68216564,,-73.95399026,,Hancock St & Bedford Ave,,Hancock St & Bedford Ave,1,In Service,False,27
437,,9,15,,437,,2016-02-03 02:46:29 PM,40.6809833854,,-73.9500479759,,Macon St & Nostrand Ave,,Macon St & Nostrand Ave,1,In Service,False,24
438,,2,24,,438,,2016-02-03 02:44:53 PM,40.72779126,,-73.98564945,,St Marks Pl & 1 Ave,,St Marks Pl & 1 Ave,1,In Service,False,26
439,,6,33,,439,,2016-02-03 02:45:59 PM,40.7262807,,-73.98978041,,E 4 St & 2 Ave,,E 4 St & 2 Ave,1,In Service,False,39
440,,21,11,,440,,2016-02-03 02:43:39 PM,40.75255434,,-73.97282625,,E 45 St & 3 Ave,,E 45 St & 3 Ave,1,In Service,False,32
441,,1,34,,441,,2016-02-03 02:46:00 PM,40.756014,,-73.967416,,E 52 St & 2 Ave,,E 52 St & 2 Ave,1,In Service,False,35
442,,30,20,,442,,2016-02-03 02:44:35 PM,40.746647,,-73.993915,,W 27 St & 7 Ave,,W 27 St & 7 Ave,1,In Service,False,50
443,,6,17,,443,,2016-02-03 02:45:39 PM,40.70853074,,-73.96408963,,Bedford Ave & S 9 St,,Bedford Ave & S 9 St,1,In Service,False,23
444,,50,2,,444,,2016-02-03 02:43:46 PM,40.7423543,,-73.98915076,,Broadway & W 24 St,,Broadway & W 24 St,1,In Service,False,52
445,,1,41,,445,,2016-02-03 02:44:20 PM,40.72740794,,-73.98142006,,E 10 St & Avenue A,,E 10 St & Avenue A,1,In Service,False,42
446,,4,32,,446,,2016-02-03 02:43:30 PM,40.74487634,,-73.99529885,,W 24 St & 7 Ave,,W 24 St & 7 Ave,1,In Service,False,36
447,,7,23,,447,,2016-02-03 02:45:35 PM,40.76370739,,-73.9851615,,8 Ave & W 52 St,,8 Ave & W 52 St,1,In Service,False,30
448,,2,29,,448,,2016-02-03 02:43:19 PM,40.75660359,,-73.9979009,,W 37 St & 10 Ave,,W 37 St & 10 Ave,1,In Service,False,31
449,,7,24,,449,,2016-02-03 02:45:05 PM,40.76461837,,-73.98789473,,W 52 St & 9 Ave,,W 52 St & 9 Ave,1,In Service,False,31
450,,15,44,,450,,2016-02-03 02:44:49 PM,40.76227205,,-73.98788205,,W 49 St & 8 Ave,,W 49 St & 8 Ave,1,In Service,False,59
453,,6,33,,453,,2016-02-03 02:45:29 PM,40.74475148,,-73.99915362,,W 22 St & 8 Ave,,W 22 St & 8 Ave,1,In Service,False,39
454,,8,27,,454,,2016-02-03 02:46:19 PM,40.75455731,,-73.96592976,,E 51 St & 1 Ave,,E 51 St & 1 Ave,1,In Service,False,35
455,,0,0,,455,,2016-02-03 02:45:22 PM,40.75001986,,-73.96905301,,1 Ave & E 44 St,,1 Ave & E 44 St,1,Not In Service,False,7
456,,33,2,,456,,2016-02-03 02:44:02 PM,40.7597108,,-73.97402311,,E 53 St & Madison Ave,,E 53 St & Madison Ave,1,In Service,False,35
457,,15,24,,457,,2016-02-03 02:45:41 PM,40.76695317,,-73.98169333,,Broadway & W 58 St,,Broadway & W 58 St,1,In Service,False,39
458,,24,6,,458,,2016-02-03 02:45:55 PM,40.751396,,-74.005226,,11 Ave & W 27 St,,11 Ave & W 27 St,1,In Service,False,30
459,,46,3,,459,,2016-02-03 02:45:56 PM,40.746745,,-74.007756,,W 20 St & 11 Ave,,W 20 St & 11 Ave,1,In Service,False,49
460,,15,8,,460,,2016-02-03 02:43:11 PM,40.71285887,,-73.96590294,,S 4 St & Wythe Ave,,S 4 St & Wythe Ave,1,In Service,False,23
461,,6,33,,461,,2016-02-03 02:44:40 PM,40.73587678,,-73.98205027,,E 20 St & 2 Ave,,E 20 St & 2 Ave,1,In Service,False,39
462,,38,9,,462,,2016-02-03 02:43:21 PM,40.74691959,,-74.00451887,,W 22 St & 10 Ave,,W 22 St & 10 Ave,1,In Service,False,47
463,,21,4,,463,,2016-02-03 02:45:42 PM,40.74206539,,-74.00443172,,9 Ave & W 16 St,,9 Ave & W 16 St,1,In Service,False,25
465,,1,38,,465,,2016-02-03 02:46:11 PM,40.75513557,,-73.98658032,,Broadway & W 41 St,,Broadway & W 41 St,1,In Service,False,39
466,,13,22,,466,,2016-02-03 02:45:18 PM,40.74395411,,-73.99144871,,W 25 St & 6 Ave,,W 25 St & 6 Ave,1,In Service,False,35
467,,22,12,,467,,2016-02-03 02:44:58 PM,40.68312489,,-73.97895137,,Dean St & 4 Ave,,Dean St & 4 Ave,1,In Service,False,34
468,,50,9,,468,,2016-02-03 02:45:13 PM,40.7652654,,-73.98192338,,Broadway & W 55 St,,Broadway & W 55 St,1,In Service,False,59
469,,23,34,,469,,2016-02-03 02:45:29 PM,40.76344058,,-73.98268129,,Broadway & W 53 St,,Broadway & W 53 St,1,In Service,False,57
470,,18,18,,470,,2016-02-03 02:42:47 PM,40.74345335,,-74.00004031,,W 20 St & 8 Ave,,W 20 St & 8 Ave,1,In Service,False,36
471,,14,17,,471,,2016-02-03 02:45:49 PM,40.71286844,,-73.95698119,,Grand St & Havemeyer St,,Grand St & Havemeyer St,1,In Service,False,31
472,,30,11,,472,,2016-02-03 02:45:33 PM,40.7457121,,-73.98194829,,E 32 St & Park Ave,,E 32 St & Park Ave,1,In Service,False,41
473,,2,36,,473,,2016-02-03 02:45:11 PM,40.72110063,,-73.9919254,,Rivington St & Chrystie St,,Rivington St & Chrystie St,1,In Service,False,38
474,,26,21,,474,,2016-02-03 02:46:18 PM,40.7451677,,-73.98683077,,5 Ave & E 29 St,,5 Ave & E 29 St,1,In Service,False,47
475,,26,11,,475,,2016-02-03 02:45:03 PM,40.73524276,,-73.98758561,,E 16 St & Irving Pl,,E 16 St & Irving Pl,1,In Service,False,37
476,,2,45,,476,,2016-02-03 02:43:31 PM,40.74394314,,-73.97966069,,E 31 St & 3 Ave,,E 31 St & 3 Ave,1,In Service,False,47
477,,4,55,,477,,2016-02-03 02:45:49 PM,40.75640548,,-73.9900262,,W 41 St & 8 Ave,,W 41 St & 8 Ave,1,In Service,False,59
478,,3,28,,478,,2016-02-03 02:44:36 PM,40.76030096,,-73.99884222,,11 Ave & W 41 St,,11 Ave & W 41 St,1,In Service,False,31
479,,4,24,,479,,2016-02-03 02:43:58 PM,40.76019252,,-73.9912551,,9 Ave & W 45 St,,9 Ave & W 45 St,1,In Service,False,28
480,,9,18,,480,,2016-02-03 02:44:32 PM,40.76669671,,-73.99061728,,W 53 St & 10 Ave,,W 53 St & 10 Ave,1,In Service,False,27
481,,5,19,,481,,2016-02-03 02:44:34 PM,40.71260486,,-73.96264403,,S 3 St & Bedford Ave,,S 3 St & Bedford Ave,1,In Service,False,24
482,,23,15,,482,,2016-02-03 02:46:06 PM,40.73935542,,-73.99931783,,W 15 St & 7 Ave,,W 15 St & 7 Ave,1,In Service,False,38
483,,10,23,,483,,2016-02-03 02:46:24 PM,40.73223272,,-73.98889957,,E 12 St & 3 Ave,,E 12 St & 3 Ave,1,In Service,False,33
484,,13,29,,484,,2016-02-03 02:45:10 PM,40.75500254,,-73.98014437,,W 44 St & 5 Ave,,W 44 St & 5 Ave,1,In Service,False,42
485,,21,18,,485,,2016-02-03 02:43:10 PM,40.75038009,,-73.98338988,,W 37 St & 5 Ave,,W 37 St & 5 Ave,1,In Service,False,39
486,,9,29,,486,,2016-02-03 02:44:41 PM,40.7462009,,-73.98855723,,Broadway & W 29 St,,Broadway & W 29 St,1,In Service,False,38
487,,7,28,,487,,2016-02-03 02:44:10 PM,40.73314259,,-73.97573881,,E 20 St & FDR Drive,,E 20 St & FDR Drive,1,In Service,False,35
488,,0,41,,488,,2016-02-03 02:46:07 PM,40.75645824,,-73.99372222,,W 39 St & 9 Ave,,W 39 St & 9 Ave,1,In Service,False,41
489,,19,17,,489,,2016-02-03 02:45:36 PM,40.75066386,,-74.00176802,,10 Ave & W 28 St,,10 Ave & W 28 St,1,In Service,False,36
490,,2,56,,490,,2016-02-03 02:42:32 PM,40.751551,,-73.993934,,8 Ave & W 33 St,,8 Ave & W 33 St,1,In Service,False,58
491,,48,5,,491,,2016-02-03 02:42:52 PM,40.74096374,,-73.98602213,,E 24 St & Park Ave S,,E 24 St & Park Ave S,1,In Service,False,53
492,,8,41,,492,,2016-02-03 02:45:31 PM,40.75019995,,-73.99093085,,W 33 St & 7 Ave,,W 33 St & 7 Ave,1,In Service,False,49
493,,29,5,,493,,2016-02-03 02:45:39 PM,40.7568001,,-73.98291153,,W 45 St & 6 Ave,,W 45 St & 6 Ave,1,In Service,False,34
494,,5,30,,494,,2016-02-03 02:43:25 PM,40.74734825,,-73.99723551,,W 26 St & 8 Ave,,W 26 St & 8 Ave,1,In Service,False,35
495,,1,24,,495,,2016-02-03 02:44:57 PM,40.76269882,,-73.99301222,,W 47 St & 10 Ave,,W 47 St & 10 Ave,1,In Service,False,25
496,,33,13,,496,,2016-02-03 02:46:02 PM,40.73726186,,-73.99238967,,E 16 St & 5 Ave,,E 16 St & 5 Ave,1,In Service,False,46
497,,50,8,,497,,2016-02-03 02:44:11 PM,40.73704984,,-73.99009296,,E 17 St & Broadway,,E 17 St & Broadway,1,In Service,False,58
498,,0,29,,498,,2016-02-03 02:43:47 PM,40.74854862,,-73.98808416,,Broadway & W 32 St,,Broadway & W 32 St,1,In Service,False,29
499,,1,34,,499,,2016-02-03 02:45:03 PM,40.76915505,,-73.98191841,,Broadway & W 60 St,,Broadway & W 60 St,1,In Service,False,35
500,,39,11,,500,,2016-02-03 02:45:44 PM,40.76228826,,-73.98336183,,Broadway & W 51 St,,Broadway & W 51 St,1,In Service,False,50
501,,2,41,,501,,2016-02-03 02:46:02 PM,40.744219,,-73.97121214,,FDR Drive & E 35 St,,FDR Drive & E 35 St,1,In Service,False,43
502,,1,28,,502,,2016-02-03 02:45:44 PM,40.714215,,-73.981346,,Henry St & Grand St,,Henry St & Grand St,1,In Service,False,29
503,,28,1,,503,,2016-02-03 02:42:38 PM,40.73827428,,-73.98751968,,E 20 St & Park Ave,,E 20 St & Park Ave,1,In Service,False,29
504,,6,38,,504,,2016-02-03 02:42:51 PM,40.73221853,,-73.98165557,,1 Ave & E 15 St,,1 Ave & E 15 St,1,In Service,False,44
505,,2,34,,505,,2016-02-03 02:43:20 PM,40.74901271,,-73.98848395,,6 Ave & W 33 St,,6 Ave & W 33 St,1,In Service,False,36
507,,8,39,,507,,2016-02-03 02:39:57 PM,40.73912601,,-73.97973776,,E 25 St & 2 Ave,,E 25 St & 2 Ave,3,Not In Service,False,47
508,,13,11,,508,,2016-02-03 02:44:43 PM,40.76341379,,-73.99667444,,W 46 St & 11 Ave,,W 46 St & 11 Ave,1,In Service,False,24
509,,12,21,,509,,2016-02-03 02:46:08 PM,40.7454973,,-74.00197139,,9 Ave & W 22 St,,9 Ave & W 22 St,1,In Service,False,33
510,,50,1,,510,,2016-02-03 02:43:21 PM,40.7606597,,-73.98042047,,W 51 St & 6 Ave,,W 51 St & 6 Ave,1,In Service,False,51
511,,13,20,,511,,2016-02-03 02:46:21 PM,40.72938685,,-73.97772429,,E 14 St & Avenue B,,E 14 St & Avenue B,1,In Service,False,33
512,,1,24,,512,,2016-02-03 02:43:48 PM,40.7500727,,-73.99839279,,W 29 St & 9 Ave,,W 29 St & 9 Ave,1,In Service,False,25
513,,10,16,,513,,2016-02-03 02:45:05 PM,40.768254,,-73.988639,,W 56 St & 10 Ave,,W 56 St & 10 Ave,1,In Service,False,26
514,,7,46,,514,,2016-02-03 02:46:20 PM,40.76087502,,-74.00277668,,12 Ave & W 40 St,,12 Ave & W 40 St,1,In Service,False,53
515,,2,32,,515,,2016-02-03 02:43:09 PM,40.76009437,,-73.99461843,,W 43 St & 10 Ave,,W 43 St & 10 Ave,1,In Service,False,34
516,,29,2,,516,,2016-02-03 02:44:01 PM,40.75206862,,-73.96784384,,E 47 St & 1 Ave,,E 47 St & 1 Ave,1,In Service,False,31
517,,34,24,,517,,2016-02-03 02:43:24 PM,40.751581,,-73.97791,,Pershing Square South,,Pershing Square South,1,In Service,False,58
518,,28,11,,518,,2016-02-03 02:43:48 PM,40.74780373,,-73.9734419,,E 39 St & 2 Ave,,E 39 St & 2 Ave,1,In Service,False,39
519,,4,56,,519,,2016-02-03 02:45:33 PM,40.751873,,-73.977706,,Pershing Square North,,Pershing Square North,1,In Service,False,60
520,,7,31,,520,,2016-02-03 02:43:41 PM,40.75992262,,-73.97648516,,W 52 St & 5 Ave,,W 52 St & 5 Ave,1,In Service,False,38
521,,4,34,,521,,2016-02-03 02:44:41 PM,40.7509673487,,-73.9944420755,,8 Ave & W 31 St,,8 Ave & W 31 St,1,In Service,False,38
522,,37,14,,522,,2016-02-03 02:46:12 PM,40.75714758,,-73.97207836,,E 51 St & Lexington Ave,,E 51 St & Lexington Ave,1,In Service,False,51
523,,0,51,,523,,2016-02-03 02:44:15 PM,40.75466591,,-73.99138152,,W 38 St & 8 Ave,,W 38 St & 8 Ave,1,In Service,False,51
524,,19,38,,524,,2016-02-03 02:44:50 PM,40.75527307,,-73.98316936,,W 43 St & 6 Ave,,W 43 St & 6 Ave,1,In Service,False,57
525,,21,18,,525,,2016-02-03 02:43:05 PM,40.75594159,,-74.0021163,,W 34 St & 11 Ave,,W 34 St & 11 Ave,1,In Service,False,39
526,,14,24,,526,,2016-02-03 02:46:14 PM,40.74765947,,-73.98490707,,E 33 St & 5 Ave,,E 33 St & 5 Ave,1,In Service,False,38
527,,20,39,,527,,2016-02-03 02:43:22 PM,40.744023,,-73.976056,,E 33 St & 2 Ave,,E 33 St & 2 Ave,1,In Service,False,59
528,,9,30,,528,,2016-02-03 02:46:23 PM,40.74290902,,-73.97706058,,2 Ave & E 31 St,,2 Ave & E 31 St,1,In Service,False,39
529,,3,38,,529,,2016-02-03 02:45:46 PM,40.7575699,,-73.99098507,,W 42 St & 8 Ave,,W 42 St & 8 Ave,1,In Service,False,41
530,,8,25,,530,,2016-02-03 02:45:08 PM,40.771522,,-73.990541,,11 Ave & W 59 St,,11 Ave & W 59 St,1,In Service,False,33
531,,4,35,,531,,2016-02-03 02:43:44 PM,40.71893904,,-73.99266288,,Forsyth St & Broome St,,Forsyth St & Broome St,1,In Service,False,39
532,,12,31,,532,,2016-02-03 02:43:53 PM,40.710451,,-73.960876,,S 5 Pl & S 4 St,,S 5 Pl & S 4 St,1,In Service,False,43
533,,2,48,,533,,2016-02-03 02:44:23 PM,40.75299641,,-73.98721619,,Broadway & W 39 St,,Broadway & W 39 St,1,In Service,False,50
534,,28,2,,534,,2016-02-03 02:45:57 PM,40.70255065,,-74.0127234,,Water - Whitehall Plaza,,Water - Whitehall Plaza,1,In Service,False,30
536,,24,1,,536,,2016-02-03 02:45:03 PM,40.74144387,,-73.97536082,,1 Ave & E 30 St,,1 Ave & E 30 St,1,In Service,False,25
537,,28,10,,537,,2016-02-03 02:42:42 PM,40.74025878,,-73.98409214,,Lexington Ave & E 24 St,,Lexington Ave & E 24 St,1,In Service,False,38
539,,6,25,,539,,2016-02-03 02:45:13 PM,40.71534825,,-73.96024116,,Metropolitan Ave & Bedford Ave,,Metropolitan Ave & Bedford Ave,1,In Service,False,31
540,,9,20,,540,,2016-02-03 02:45:03 PM,40.7431155538,,-73.9821535349,,Lexington Ave & E 29 St,,Lexington Ave & E 29 St,1,In Service,False,29
545,,9,17,,545,,2016-02-03 02:44:56 PM,40.736502,,-73.97809472,,E 23 St & 1 Ave,,E 23 St & 1 Ave,1,In Service,False,26
546,,16,20,,546,,2016-02-03 02:45:34 PM,40.74444921,,-73.98303529,,E 30 St & Park Ave S,,E 30 St & Park Ave S,1,In Service,False,36
2000,,28,2,,2000,,2016-02-03 02:45:45 PM,40.70255088,,-73.98940236,,Front St & Washington St,,Front St & Washington St,1,In Service,False,30
2001,,9,5,,2001,,2016-02-03 02:45:28 PM,40.699773,,-73.979927,,Sands St & Navy St,,Sands St & Navy St,1,In Service,False,14
2002,,12,15,,2002,,2016-02-03 02:45:27 PM,40.716887,,-73.963198,,Wythe Ave & Metropolitan Ave,,Wythe Ave & Metropolitan Ave,1,In Service,False,27
2003,,6,33,,2003,,2016-02-03 02:43:21 PM,40.733812192,,-73.9805442095,,1 Ave & E 18 St,,1 Ave & E 18 St,1,In Service,False,39
2004,,34,2,,2004,,2016-02-03 02:45:28 PM,40.724399,,-74.004704,,6 Ave & Broome St,,6 Ave & Broome St,1,In Service,False,36
2005,,5,7,,2005,,2016-02-03 02:42:35 PM,40.70531194,,-73.97100056,,Railroad Ave & Kay Ave,,Railroad Ave & Kay Ave,1,In Service,False,12
2006,,15,33,,2006,,2016-02-03 02:45:50 PM,40.76590936,,-73.97634151,,Central Park S & 6 Ave,,Central Park S & 6 Ave,1,In Service,False,48
2008,,16,8,,2008,,2016-02-03 02:45:52 PM,40.70569254,,-74.01677685,,Little West St & 1 Pl,,Little West St & 1 Pl,1,In Service,False,24
2009,,10,25,,2009,,2016-02-03 02:43:32 PM,40.71117444,,-73.99682619,,Catherine St & Monroe St,,Catherine St & Monroe St,1,In Service,False,35
2010,,27,12,,2010,,2016-02-03 02:45:29 PM,40.72165481,,-74.00234737,,Grand St & Greene St,,Grand St & Greene St,1,In Service,False,39
2012,,28,8,,2012,,2016-02-03 02:44:00 PM,40.739445,,-73.976806,,E 27 St & 1 Ave,,E 27 St & 1 Ave,1,In Service,False,36
2017,,9,30,,2017,,2016-02-03 02:43:46 PM,40.75022392,,-73.97121414,,E 43 St & 2 Ave,,E 43 St & 2 Ave,1,In Service,False,39
2021,,6,37,,2021,,2016-02-03 02:44:40 PM,40.75929124,,-73.98859651,,W 45 St & 8 Ave,,W 45 St & 8 Ave,1,In Service,False,43
2022,,2,31,,2022,,2016-02-03 02:46:25 PM,40.759107,,-73.959223,,E 60 St & York Ave,,E 60 St & York Ave,1,In Service,False,33
2023,,19,17,,2023,,2016-02-03 02:45:40 PM,40.75968085,,-73.97031366,,E 55 St & Lexington Ave,,E 55 St & Lexington Ave,1,In Service,False,36
3002,,11,14,,3002,,2016-02-03 02:45:04 PM,40.711512,,-74.015756,,South End Ave & Liberty St,,South End Ave & Liberty St,1,In Service,False,25
3041,,12,12,,3041,,2016-02-03 02:45:09 PM,40.67890679,,-73.94142771,,Kingston Ave & Herkimer St,,Kingston Ave & Herkimer St,1,In Service,False,24
3042,,7,12,,3042,,2016-02-03 02:43:19 PM,40.6794268,,-73.9298911,,Fulton St & Utica Ave,,Fulton St & Utica Ave,1,In Service,False,19
3043,,9,9,,3043,,2016-02-03 02:44:59 PM,40.6814598,,-73.934903,,Lewis Ave & Decatur St,,Lewis Ave & Decatur St,1,In Service,False,18
3044,,1,26,,3044,,2016-02-03 02:42:45 PM,40.6800105,,-73.938475,,Albany Ave & Fulton St,,Albany Ave & Fulton St,1,In Service,False,27
3046,,5,13,,3046,,2016-02-03 02:42:48 PM,40.682601,,-73.938037,,Marcus Garvey Blvd & Macon St,,Marcus Garvey Blvd & Macon St,1,In Service,False,18
3047,,1,20,,3047,,2016-02-03 02:46:01 PM,40.6823687,,-73.944118,,Halsey St & Tompkins Ave,,Halsey St & Tompkins Ave,1,In Service,False,21
3048,,14,5,,3048,,2016-02-03 02:45:46 PM,40.68402,,-73.94977,,Putnam Ave & Nostrand Ave,,Putnam Ave & Nostrand Ave,1,In Service,False,19
3049,,2,16,,3049,,2016-02-03 02:45:51 PM,40.68488,,-73.96304,,Cambridge Pl & Gates Ave,,Cambridge Pl & Gates Ave,1,In Service,False,18
3050,,6,15,,3050,,2016-02-03 02:46:14 PM,40.6851532,,-73.94111,,Putnam Ave & Throop Ave,,Putnam Ave & Throop Ave,1,In Service,False,21
3052,,7,16,,3052,,2016-02-03 02:43:58 PM,40.686312,,-73.935775,,Lewis Ave & Madison St,,Lewis Ave & Madison St,1,In Service,False,23
3053,,1,22,,3053,,2016-02-03 02:44:43 PM,40.6900815,,-73.947915,,Marcy Ave & Lafayette Ave,,Marcy Ave & Lafayette Ave,1,In Service,False,23
3054,,3,16,,3054,,2016-02-03 02:42:52 PM,40.6894932,,-73.942061,,Greene Ave & Throop Ave,,Greene Ave & Throop Ave,1,In Service,False,19
3055,,9,14,,3055,,2016-02-03 02:46:02 PM,40.6883337,,-73.950916,,Greene Ave & Nostrand Ave,,Greene Ave & Nostrand Ave,1,In Service,False,23
3056,,1,22,,3056,,2016-02-03 02:45:20 PM,40.69072549,,-73.95133465,,Kosciuszko St & Nostrand Ave,,Kosciuszko St & Nostrand Ave,1,In Service,False,23
3057,,0,18,,3057,,2016-02-03 02:46:03 PM,40.69128258,,-73.9452416,,Kosciuszko St & Tompkins Ave,,Kosciuszko St & Tompkins Ave,1,In Service,False,18
3058,,5,19,,3058,,2016-02-03 02:43:28 PM,40.69237074,,-73.93705428,,Lewis Ave & Kosciuszko St,,Lewis Ave & Kosciuszko St,1,In Service,False,24
3059,,1,18,,3059,,2016-02-03 02:43:45 PM,40.6933982,,-73.939877,,Pulaski St & Marcus Garvey Blvd,,Pulaski St & Marcus Garvey Blvd,1,In Service,False,19
3060,,0,19,,3060,,2016-02-03 02:43:14 PM,40.69425403,,-73.94626915,,Willoughby Ave & Tompkins Ave,,Willoughby Ave & Tompkins Ave,1,In Service,False,19
3061,,0,21,,3061,,2016-02-03 02:44:25 PM,40.69622937,,-73.94371094,,Throop Ave & Myrtle Ave,,Throop Ave & Myrtle Ave,1,In Service,False,21
3062,,4,19,,3062,,2016-02-03 02:43:25 PM,40.69539817,,-73.94954908,,Myrtle Ave & Marcy Ave,,Myrtle Ave & Marcy Ave,1,In Service,False,23
3063,,6,14,,3063,,2016-02-03 02:44:52 PM,40.69527008,,-73.95238108,,Nostrand Ave & Myrtle Ave,,Nostrand Ave & Myrtle Ave,1,In Service,False,20
3064,,17,6,,3064,,2016-02-03 02:45:59 PM,40.69681963,,-73.93756926,,Myrtle Ave & Lewis Ave,,Myrtle Ave & Lewis Ave,1,In Service,False,23
3065,,1,26,,3065,,2016-02-03 02:43:14 PM,40.70029511,,-73.95032283,,Union Ave & Wallabout St,,Union Ave & Wallabout St,1,In Service,False,27
3066,,12,7,,3066,,2016-02-03 02:46:10 PM,40.69957608,,-73.94708417,,Tompkins Ave & Hopkins St,,Tompkins Ave & Hopkins St,1,In Service,False,19
3067,,13,13,,3067,,2016-02-03 02:44:22 PM,40.7016657,,-73.9437303,,Broadway & Whipple St,,Broadway & Whipple St,1,In Service,False,26
3068,,9,15,,3068,,2016-02-03 02:42:54 PM,40.7031724,,-73.940636,,Humboldt St & Varet St,,Humboldt St & Varet St,1,In Service,False,24
3069,,7,18,,3069,,2016-02-03 02:44:27 PM,40.70411791,,-73.94818595,,Lorimer St & Broadway,,Lorimer St & Broadway,1,In Service,False,25
3070,,5,18,,3070,,2016-02-03 02:43:34 PM,40.70510918,,-73.94407279,,McKibbin St & Manhattan Ave,,McKibbin St & Manhattan Ave,1,In Service,False,23
3071,,13,6,,3071,,2016-02-03 02:43:25 PM,40.70538077,,-73.94976519,,Boerum St & Broadway,,Boerum St & Broadway,1,In Service,False,19
3072,,8,16,,3072,,2016-02-03 02:44:18 PM,40.70583339,,-73.94644578,,Leonard St & Boerum St,,Leonard St & Boerum St,1,In Service,False,24
3073,,4,23,,3073,,2016-02-03 02:46:28 PM,40.70691254,,-73.95441667,,Division Ave & Hooper St,,Division Ave & Hooper St,1,In Service,False,27
3074,,14,17,,3074,,2016-02-03 02:43:13 PM,40.70767788,,-73.94016171,,Montrose Ave & Bushwick Ave,,Montrose Ave & Bushwick Ave,1,In Service,False,31
3075,,1,32,,3075,,2016-02-03 02:45:19 PM,40.70708701,,-73.95796783,,Division Ave & Marcy Ave,,Division Ave & Marcy Ave,1,In Service,False,33
3076,,9,15,,3076,,2016-02-03 02:45:32 PM,40.70870368,,-73.9448625,,Scholes St & Manhattan Ave,,Scholes St & Manhattan Ave,1,In Service,False,24
3077,,2,31,,3077,,2016-02-03 02:44:04 PM,40.70877084,,-73.95095259,,Stagg St & Union Ave,,Stagg St & Union Ave,1,In Service,False,33
3078,,3,23,,3078,,2016-02-03 02:45:20 PM,40.70925562,,-73.95982218,,Broadway & Roebling St,,Broadway & Roebling St,1,In Service,False,26
3079,,20,4,,3079,,2016-02-03 02:44:00 PM,40.71103537,,-73.94714303,,Leonard St & Grand St,,Leonard St & Grand St,1,In Service,False,24
3080,,1,20,,3080,,2016-02-03 02:45:24 PM,40.70934,,-73.95608,,S 4 St & Rodney St,,S 4 St & Rodney St,1,In Service,False,21
3081,,5,18,,3081,,2016-02-03 02:46:21 PM,40.711863,,-73.944024,,Graham Ave & Grand St,,Graham Ave & Grand St,1,In Service,False,23
3082,,3,22,,3082,,2016-02-03 02:44:16 PM,40.71167351,,-73.95141312,,Hope St & Union Ave,,Hope St & Union Ave,1,In Service,False,25
3083,,6,24,,3083,,2016-02-03 02:42:33 PM,40.71247661,,-73.94100005,,Bushwick Ave & Powers St,,Bushwick Ave & Powers St,1,In Service,False,30
3084,,6,13,,3084,,2016-02-03 02:44:57 PM,40.71348658,,-73.94792458,,Devoe St & Leonard St,,Devoe St & Leonard St,1,In Service,False,19
3085,,20,5,,3085,,2016-02-03 02:46:04 PM,40.71469,,-73.95739,,Roebling St & N 4 St,,Roebling St & N 4 St,1,In Service,False,25
3086,,21,4,,3086,,2016-02-03 02:43:05 PM,40.715143,,-73.944507,,Graham Ave & Conselyea St,,Graham Ave & Conselyea St,1,In Service,False,25
3087,,26,10,,3087,,2016-02-03 02:46:18 PM,40.71413311,,-73.95234386,,Metropolitan Ave & Meeker Ave,,Metropolitan Ave & Meeker Ave,1,In Service,False,36
3088,,0,22,,3088,,2016-02-03 02:44:57 PM,40.7160751,,-73.952029,,Union Ave & Jackson St,,Union Ave & Jackson St,1,In Service,False,22
3089,,0,21,,3089,,2016-02-03 02:45:08 PM,40.7173184039,,-73.9482021332,,Leonard St & Meeker Ave,,Leonard St & Meeker Ave,1,In Service,False,21
3090,,26,4,,3090,,2016-02-03 02:45:49 PM,40.71774592,,-73.95600096,,N 8 St & Driggs Ave,,N 8 St & Driggs Ave,1,In Service,False,30
3091,,1,30,,3091,,2016-02-03 02:45:20 PM,40.71764,,-73.94882,,Frost St & Meeker St,,Frost St & Meeker St,1,In Service,False,31
3092,,10,17,,3092,,2016-02-03 02:45:37 PM,40.7190095,,-73.95852515,,Berry St & N 8 St,,Berry St & N 8 St,1,In Service,False,27
3093,,19,8,,3093,,2016-02-03 02:46:24 PM,40.71745169,,-73.95850939,,N 6 St & Bedford Ave,,N 6 St & Bedford Ave,1,In Service,False,27
3094,,1,17,,3094,,2016-02-03 02:46:19 PM,40.7169811,,-73.94485918,,Graham Ave & Withers St,,Graham Ave & Withers St,1,In Service,False,18
3095,,0,23,,3095,,2016-02-03 02:45:26 PM,40.71929301,,-73.94500379,,Graham Ave & Herbert St,,Graham Ave & Herbert St,1,In Service,False,23
3096,,8,31,,3096,,2016-02-03 02:44:02 PM,40.71924,,-73.95242,,Union Ave & N 12 St,,Union Ave & N 12 St,1,In Service,False,39
3097,,3,16,,3097,,2016-02-03 02:43:58 PM,40.71921585,,-73.9424469,,N Henry St & Richardson St,,N Henry St & Richardson St,1,In Service,False,19
3098,,4,38,,3098,,2016-02-03 02:46:26 PM,40.71928,,-73.94861,,Leonard St & Bayard St,,Leonard St & Bayard St,1,In Service,False,42
3099,,5,14,,3099,,2016-02-03 02:43:24 PM,40.7215224034,,-73.948982656,,Leonard St & Manhattan Ave,,Leonard St & Manhattan Ave,1,In Service,False,19
3100,,0,0,,3100,,1969-12-31 07:00:00 PM,40.7248125644,,-73.9475262165,,Nassau Ave & Newell St,,Nassau Ave & Newell St,3,Not In Service,False,0
3101,,2,25,,3101,,2016-02-03 02:43:08 PM,40.72079821,,-73.95484712,,N 12 St & Bedford Ave,,N 12 St & Bedford Ave,1,In Service,False,27
3102,,2,24,,3102,,2016-02-03 02:42:49 PM,40.72179134,,-73.9504154,,Driggs Ave & Lorimer St,,Driggs Ave & Lorimer St,1,In Service,False,26
3103,,10,16,,3103,,2016-02-03 02:45:20 PM,40.72153267,,-73.95782357,,N 11 St & Wythe Ave,,N 11 St & Wythe Ave,1,In Service,False,26
3104,,24,23,,3104,,2016-02-03 02:45:36 PM,40.72057658,,-73.96150225,,Kent Ave & N 7 St,,Kent Ave & N 7 St,1,In Service,False,47
3105,,12,12,,3105,,2016-02-03 02:43:42 PM,40.724055,,-73.955736,,N 15 St & Wythe Ave,,N 15 St & Wythe Ave,1,In Service,False,24
3106,,8,11,,3106,,2016-02-03 02:44:06 PM,40.72325,,-73.94308,,Driggs Ave & N Henry St,,Driggs Ave & N Henry St,1,In Service,False,19
3107,,9,30,,3107,,2016-02-03 02:46:07 PM,40.72311651,,-73.95212324,,Bedford Ave & Nassau Ave,,Bedford Ave & Nassau Ave,1,In Service,False,39
3108,,12,12,,3108,,2016-02-03 02:46:23 PM,40.72557,,-73.94434,,Nassau Ave & Russell St,,Nassau Ave & Russell St,1,In Service,False,24
3109,,11,20,,3109,,2016-02-03 02:43:22 PM,40.72606,,-73.95621,,Banker St & Meserole Ave,,Banker St & Meserole Ave,1,In Service,False,31
3110,,2,24,,3110,,2016-02-03 02:46:17 PM,40.72708584,,-73.95299117,,Meserole Ave & Manhattan Ave,,Meserole Ave & Manhattan Ave,1,In Service,False,26
3111,,1,24,,3111,,2016-02-03 02:44:05 PM,40.7258483,,-73.95064893,,Norman Ave & Leonard St,,Norman Ave & Leonard St,1,In Service,False,25
3112,,26,7,,3112,,2016-02-03 02:43:12 PM,40.72906,,-73.95779,,Milton St & Franklin St,,Milton St & Franklin St,1,In Service,False,33
3113,,12,15,,3113,,2016-02-03 02:43:40 PM,40.73026,,-73.95394,,Greenpoint Ave & Manhattan Ave,,Greenpoint Ave & Manhattan Ave,1,In Service,False,27
3114,,18,5,,3114,,2016-02-03 02:45:27 PM,40.73165141,,-73.96161892,,India St & East River,,India St & East River,1,In Service,False,23
3115,,7,25,,3115,,2016-02-03 02:42:36 PM,40.73232194,,-73.9550858,,India St & Manhattan Ave,,India St & Manhattan Ave,1,In Service,False,32
3116,,1,34,,3116,,2016-02-03 02:45:32 PM,40.73266,,-73.95826,,Huron St & Franklin St,,Huron St & Franklin St,1,In Service,False,35
3117,,12,15,,3117,,2016-02-03 02:44:34 PM,40.73564,,-73.95866,,Franklin St & Dupont St,,Franklin St & Dupont St,1,In Service,False,27
3118,,1,28,,3118,,2016-02-03 02:45:16 PM,40.73555,,-73.95284,,McGuinness Blvd & Eagle St,,McGuinness Blvd & Eagle St,1,In Service,False,29
3119,,19,26,,3119,,2016-02-03 02:45:57 PM,40.74232744,,-73.95411749,,Vernon Blvd & 50 Ave,,Vernon Blvd & 50 Ave,1,In Service,False,45
3120,,8,12,,3120,,2016-02-03 02:44:06 PM,40.74161,,-73.96044,,Center Blvd & Borden Ave,,Center Blvd & Borden Ave,1,In Service,False,20
3121,,18,9,,3121,,2016-02-03 02:43:08 PM,40.74524768,,-73.94733276,,Jackson Ave & 46 Rd,,Jackson Ave & 46 Rd,1,In Service,False,27
3122,,30,1,,3122,,2016-02-03 02:45:45 PM,40.7443632871,,-73.955873251,,48 Ave & 5 St,,48 Ave & 5 St,1,In Service,False,31
3123,,24,3,,3123,,2016-02-03 02:43:41 PM,40.74469738,,-73.93540375,,31 St & Thomson Ave,,31 St & Thomson Ave,1,In Service,False,27
3124,,14,12,,3124,,2016-02-03 02:45:44 PM,40.74731,,-73.95451,,46 Ave & 5 St,,46 Ave & 5 St,1,In Service,False,26
3125,,21,2,,3125,,2016-02-03 02:43:28 PM,40.74708586,,-73.94977234,,45 Rd & 11 St,,45 Rd & 11 St,1,In Service,False,23
3126,,23,11,,3126,,2016-02-03 02:45:44 PM,40.74718234,,-73.9432635,,44 Dr & Jackson Ave,,44 Dr & Jackson Ave,1,In Service,False,34
3127,,30,5,,3127,,2016-02-03 02:42:46 PM,40.74966,,-73.9521,,9 St & 44 Rd,,9 St & 44 Rd,1,In Service,False,35
3128,,19,4,,3128,,2016-02-03 02:43:49 PM,40.75052534,,-73.94594845,,21 St & 43 Ave,,21 St & 43 Ave,1,In Service,False,23
3129,,6,25,,3129,,2016-02-03 02:43:36 PM,40.75110165,,-73.94073717,,Queens Plaza North & Crescent St,,Queens Plaza North & Crescent St,1,In Service,False,31
3132,,19,16,,3132,,2016-02-03 02:43:47 PM,40.76350532,,-73.97109243,,E 59 St & Madison Ave,,E 59 St & Madison Ave,1,In Service,False,35
3134,,1,50,,3134,,2016-02-03 02:44:12 PM,40.76312584,,-73.96526895,,3 Ave & E 62 St,,3 Ave & E 62 St,1,In Service,False,51
3135,,3,38,,3135,,2016-02-03 02:46:11 PM,40.77112927,,-73.95772297,,E 75 St & 3 Ave,,E 75 St & 3 Ave,1,In Service,False,41
3136,,40,7,,3136,,2016-02-03 02:44:50 PM,40.76650452,,-73.97147595,,5 Ave & E 63 St,,5 Ave & E 63 St,1,In Service,False,47
3137,,8,20,,3137,,2016-02-03 02:46:27 PM,40.77282817,,-73.96685276,,5 Ave & E 73 St,,5 Ave & E 73 St,1,In Service,False,28
3138,,6,41,,3138,,2016-02-03 02:44:45 PM,40.774405455,,-73.9617526531,,E 77 St & Park Ave,,E 77 St & Park Ave,1,In Service,False,47
3139,,0,43,,3139,,2016-02-03 02:45:01 PM,40.7711828754,,-73.9640942216,,E 72 St & Park Ave,,E 72 St & Park Ave,1,In Service,False,43
3140,,10,45,,3140,,2016-02-03 02:46:26 PM,40.77140426,,-73.9535166,,1 Ave & E 78 St,,1 Ave & E 78 St,1,In Service,False,55
3141,,30,29,,3141,,2016-02-03 02:43:24 PM,40.76500525,,-73.95818491,,1 Ave & E 68 St,,1 Ave & E 68 St,1,In Service,False,59
3142,,0,59,,3142,,2016-02-03 02:44:31 PM,40.7612274,,-73.96094022,,1 Ave & E 62 St,,1 Ave & E 62 St,1,In Service,False,59
3143,,10,36,,3143,,2016-02-03 02:45:42 PM,40.7768286344,,-73.9638876915,,5 Ave & E 78 St,,5 Ave & E 78 St,1,In Service,False,46
3144,,3,43,,3144,,2016-02-03 02:45:42 PM,40.77677702,,-73.9590097,,E 81 St & Park Ave,,E 81 St & Park Ave,1,In Service,False,46
3145,,24,33,,3145,,2016-02-03 02:43:44 PM,40.77862688,,-73.95772073,,E 84 St & Park Ave,,E 84 St & Park Ave,1,In Service,False,57
3146,,5,41,,3146,,2016-02-03 02:43:51 PM,40.77573034,,-73.9567526,,E 81 St & 3 Ave,,E 81 St & 3 Ave,1,In Service,False,46
3147,,22,17,,3147,,2016-02-03 02:42:31 PM,40.77801203,,-73.95407149,,E 85 St & 3 Ave,,E 85 St & 3 Ave,1,In Service,False,39
3148,,3,28,,3148,,2016-02-03 02:46:01 PM,40.77565541,,-73.95068615,,E 84 St & 1 Ave,,E 84 St & 1 Ave,1,In Service,False,31
3150,,5,49,,3150,,2016-02-03 02:45:03 PM,40.77536905,,-73.94803392,,E 85 St & York Ave,,E 85 St & York Ave,1,In Service,False,54
3151,,2,41,,3151,,2016-02-03 02:44:33 PM,40.7728384,,-73.94989233,,E 81 St & York Ave,,E 81 St & York Ave,1,In Service,False,43
3153,,0,37,,3153,,2016-02-03 02:45:05 PM,40.7681754674,,-73.9591026306,,E 71 St & 2 Ave,,E 71 St & 2 Ave,1,In Service,False,37
3154,,7,24,,3154,,2016-02-03 02:44:46 PM,40.77314236,,-73.95856158,,E 77 St & 3 Ave,,E 77 St & 3 Ave,1,In Service,False,31
3155,,6,32,,3155,,2016-02-03 02:42:55 PM,40.76440023,,-73.96648977,,Lexington Ave & E 63 St,,Lexington Ave & E 63 St,1,In Service,False,38
3156,,20,19,,3156,,2016-02-03 02:45:36 PM,40.76663814,,-73.95348296,,E 72 St & York Ave,,E 72 St & York Ave,1,In Service,False,39
3157,,7,40,,3157,,2016-02-03 02:46:30 PM,40.77518615,,-73.94446054,,East End Ave & E 86 St,,East End Ave & E 86 St,1,In Service,False,47
3158,,4,27,,3158,,2016-02-03 02:42:50 PM,40.77163851,,-73.98261428,,W 63 St & Broadway,,W 63 St & Broadway,1,In Service,False,31
3159,,1,30,,3159,,2016-02-03 02:42:40 PM,40.77492513,,-73.98266566,,W 67 St & Broadway,,W 67 St & Broadway,1,In Service,False,31
3160,,0,39,,3160,,2016-02-03 02:43:36 PM,40.77896784,,-73.97374737,,Central Park West & W 76 St,,Central Park West & W 76 St,1,In Service,False,39
3161,,1,58,,3161,,2016-02-03 02:45:00 PM,40.7801839724,,-73.9772853255,,W 76 St & Columbus Ave,,W 76 St & Columbus Ave,1,In Service,False,59
3162,,10,29,,3162,,2016-02-03 02:44:27 PM,40.78339981,,-73.98093133,,W 78 St & Broadway,,W 78 St & Broadway,1,In Service,False,39
3163,,2,41,,3163,,2016-02-03 02:44:00 PM,40.7734066,,-73.97782542,,Central Park West & W 68 St,,Central Park West & W 68 St,1,In Service,False,43
3164,,3,63,,3164,,2016-02-03 02:45:24 PM,40.7770575,,-73.97898475,,Columbus Ave & W 72 St,,Columbus Ave & W 72 St,1,In Service,False,67
3165,,2,49,,3165,,2016-02-03 02:42:59 PM,40.7757937668,,-73.9762057364,,Central Park West & W 72 St,,Central Park West & W 72 St,1,In Service,False,51
3166,,10,31,,3166,,2016-02-03 02:43:29 PM,40.7805779901,,-73.9856243134,,Riverside Dr & W 72 St,,Riverside Dr & W 72 St,1,In Service,False,41
3167,,1,52,,3167,,2016-02-03 02:43:53 PM,40.7796680901,,-73.9809304476,,Amsterdam Ave & W 73 St,,Amsterdam Ave & W 73 St,1,In Service,False,53
3168,,4,27,,3168,,2016-02-03 02:44:31 PM,40.78472675,,-73.96961715,,Central Park West & W 85 St,,Central Park West & W 85 St,1,In Service,False,31
3169,,6,53,,3169,,2016-02-03 02:43:59 PM,40.78720869,,-73.98128127,,Riverside Dr & W 82 St,,Riverside Dr & W 82 St,1,In Service,False,59
3170,,0,34,,3170,,2016-02-03 02:46:10 PM,40.78499979,,-73.97283406,,W 84 St & Columbus Ave,,W 84 St & Columbus Ave,1,In Service,False,34
3171,,9,30,,3171,,2016-02-03 02:43:53 PM,40.78524672,,-73.97667321,,Amsterdam Ave & W 82 St,,Amsterdam Ave & W 82 St,1,In Service,False,39
3172,,1,26,,3172,,2016-02-03 02:43:21 PM,40.7785669,,-73.97754961,,W 74 St & Columbus Ave,,W 74 St & Columbus Ave,1,In Service,False,27
3173,,10,53,,3173,,2016-02-03 02:44:00 PM,40.7775070275,,-73.9888858795,,Riverside Blvd & W 67 St,,Riverside Blvd & W 67 St,1,In Service,False,63
3175,,0,30,,3175,,2016-02-03 02:45:02 PM,40.77748046,,-73.98288594,,W 70 St & Amsterdam Ave,,W 70 St & Amsterdam Ave,1,In Service,False,30
3176,,8,35,,3176,,2016-02-03 02:43:27 PM,40.77452835,,-73.98753759,,W 64 St & West End Ave,,W 64 St & West End Ave,1,In Service,False,43
3177,,19,44,,3177,,2016-02-03 02:46:05 PM,40.7867947,,-73.977112,,W 84 St & Broadway,,W 84 St & Broadway,1,In Service,False,63
3178,,7,52,,3178,,2016-02-03 02:45:43 PM,40.78414472,,-73.98362492,,Riverside Dr & W 78 St,,Riverside Dr & W 78 St,1,In Service,False,59
3179,,5,18,,3179,,2016-02-03 02:44:26 PM,40.698617,,-73.941342,,Park Ave & Marcus Garvey Blvd,,Park Ave & Marcus Garvey Blvd,1,In Service,False,23
3180,,3,28,,3180,,2016-02-03 02:42:55 PM,40.69878,,-73.99712,,Brooklyn Bridge Park - Pier 2,,Brooklyn Bridge Park - Pier 2,1,In Service,False,31
3183,,11,19,,3183,,2016-02-03 02:43:33 PM,40.7162469,,-74.0334588,,Exchange Place,,Exchange Place,1,In Service,False,30
3184,,11,2,,3184,,2016-02-03 02:45:16 PM,40.7141454,,-74.0335519,,Paulus Hook,,Paulus Hook,1,In Service,False,13
3185,,7,15,,3185,,2016-02-03 02:43:30 PM,40.7177325,,-74.043845,,City Hall,,City Hall,1,In Service,False,22
3186,,18,4,,3186,,2016-02-03 02:45:03 PM,40.7192789,,-74.0424515,,Grove St PATH,,Grove St PATH,1,In Service,False,22
3187,,6,15,,3187,,2016-02-03 02:43:30 PM,40.7211236,,-74.03805095,,Warren St,,Warren St,1,In Service,False,21
3188,,4,14,,3188,,2016-02-03 02:42:51 PM,40.7101087,,-74.0858489,,NJCU,,NJCU,1,In Service,False,18
3189,,7,7,,3189,,2016-02-03 02:45:44 PM,40.714402,,-74.0887723,,West Side Light Rail,,West Side Light Rail,1,In Service,False,14
3190,,7,11,,3190,,2016-02-03 02:45:16 PM,40.7108044,,-74.0714882,,Garfield Ave Light Rail,,Garfield Ave Light Rail,1,In Service,False,18
3191,,7,10,,3191,,2016-02-03 02:43:45 PM,40.7182113,,-74.0836394,,Union St,,Union St,1,In Service,False,17
3192,,4,17,,3192,,2016-02-03 02:43:06 PM,40.7112423,,-74.0557013,,Liberty Light Rail,,Liberty Light Rail,1,In Service,False,21
3193,,6,11,,3193,,2016-02-03 02:42:28 PM,40.7244188,,-74.0780383,,Lincoln Park,,Lincoln Park,1,In Service,False,17
3194,,7,6,,3194,,2016-02-03 02:44:02 PM,40.7256033,,-74.06763,,McGinley Square,,McGinley Square,1,In Service,False,13
3195,,12,20,,3195,,2016-02-03 02:45:44 PM,40.7309459,,-74.0638906,,Sip Ave,,Sip Ave,1,In Service,False,32
3196,,7,11,,3196,,2016-02-03 02:46:30 PM,40.7443187,,-74.0439909,,Riverview Park,,Riverview Park,1,In Service,False,18
3197,,6,11,,3197,,2016-02-03 02:42:42 PM,40.752559,,-74.044725,,North St,,North St,1,In Service,False,17
3198,,6,11,,3198,,2016-02-03 02:45:18 PM,40.7485362,,-74.0403131,,Heights Elevator,,Heights Elevator,1,In Service,False,17
3199,,8,6,,3199,,2016-02-03 02:42:34 PM,40.7287448,,-74.0321082,,Newport Pkwy,,Newport Pkwy,1,In Service,False,14
3200,,6,11,,3200,,2016-02-03 02:46:01 PM,40.7111305,,-74.0788855,,MLK Light Rail,,MLK Light Rail,1,In Service,False,17
3201,,5,13,,3201,,2016-02-03 02:46:25 PM,40.737711,,-74.066921,,Dey St,,Dey St,1,In Service,False,18
3202,,12,6,,3202,,2016-02-03 02:42:42 PM,40.7272235,,-74.0337589,,Newport PATH,,Newport PATH,1,In Service,False,18
3203,,3,20,,3203,,2016-02-03 02:43:36 PM,40.727595966,,-74.044247311,,Hamilton Park,,Hamilton Park,1,In Service,False,23
3205,,4,17,,3205,,2016-02-03 02:44:38 PM,40.7165271,,-74.049425,,JC Medical Center,,JC Medical Center,1,In Service,False,21
3206,,4,18,,3206,,2016-02-03 02:44:31 PM,40.7311689,,-74.0575736,,Hilltop,,Hilltop,1,In Service,False,22
3207,,2,10,,3207,,2016-02-03 02:45:28 PM,40.7376037,,-74.0524783,,Oakland Ave,,Oakland Ave,1,In Service,False,12
3209,,8,10,,3209,,2016-02-03 02:44:14 PM,40.7241765,,-74.0506564,,Brunswick St,,Brunswick St,1,In Service,False,18
3210,,6,11,,3210,,2016-02-03 02:42:35 PM,40.742677141,,-74.051788633,,Pershing Field,,Pershing Field,1,In Service,False,17
3211,,7,14,,3211,,2016-02-03 02:42:51 PM,40.72152515,,-74.046304543,,Newark Ave,,Newark Ave,1,In Service,False,21
3212,,6,16,,3212,,2016-02-03 02:43:04 PM,40.734785818,,-74.050443636,,Christ Hospital,,Christ Hospital,1,In Service,False,22
3213,,6,15,,3213,,2016-02-03 02:43:08 PM,40.71848892,,-74.047726625,,Van Vorst Park,,Van Vorst Park,1,In Service,False,21
3214,,12,10,,3214,,2016-02-03 02:42:36 PM,40.7127742,,-74.0364857,,Essex Light Rail,,Essex Light Rail,1,In Service,False,22
3215,,6,11,,3215,,2016-02-03 02:46:18 PM,40.7467299,,-74.0492509,,Central Ave,,Central Ave,1,In Service,False,17
3216,,6,12,,3216,,2016-02-03 02:45:47 PM,40.6970299,,-74.0969366,,Columbia Park,,Columbia Park,1,In Service,False,18
3217,,4,12,,3217,,2016-02-03 02:45:26 PM,40.698650544,,-74.082079678,,Bayside Park,,Bayside Park,1,In Service,False,16
3220,,5,11,,3220,,2016-02-03 02:42:33 PM,40.73496102,,-74.0595030785,,5 Corners Library,,5 Corners Library,1,In Service,False,16
3221,,20,7,,3221,,2016-02-03 02:45:45 PM,40.743,,-73.93561,,47 Ave & 31 St,,47 Ave & 31 St,1,In Service,False,27
3222,,18,21,,3222,,2016-02-03 02:45:11 PM,40.6851595999,,-73.9771136641,,Hanson Pl & St Felix St,,Hanson Pl & St Felix St,1,In Service,False,39
3223,,16,38,,3223,,2016-02-03 02:44:23 PM,40.7589965596,,-73.9686539769,,E 55 St & 3 Ave,,E 55 St & 3 Ave,1,In Service,False,54
3224,,34,4,,3224,,2016-02-03 02:45:51 PM,40.739973541,,-74.005138725,,W 13 St & Hudson St,,W 13 St & Hudson St,1,In Service,False,38
3225,,7,6,,3225,,2016-02-03 02:44:20 PM,40.7236589,,-74.0641943,,Baldwin at Montgomery,,Baldwin at Montgomery,1,In Service,False,13
3226,,5,40,,3226,,2016-02-03 02:44:43 PM,40.78275,,-73.97137,,W 82 St & Central Park West,,W 82 St & Central Park West,1,In Service,False,45
3229,,1,18,,3229,,2016-02-03 02:43:12 PM,40.6806176846,,-73.946249485,,Marcy Ave & MacDonough St,,Marcy Ave & MacDonough St,1,In Service,False,19
3230,,0,7,,3230,,2016-02-03 02:45:28 PM,40.751283597,,-73.9969244599,,Penn Station Valet,,Penn Station Valet,3,Not In Service,False,7
3231,,4,52,,3231,,2016-02-03 02:45:32 PM,40.7678008015,,-73.9659208059,,E 67 St & Park Ave,,E 67 St & Park Ave,1,In Service,False,56
3232,,19,12,,3232,,2016-02-03 02:46:18 PM,40.6896218879,,-73.9830426872,,Bond St & Fulton St,,Bond St & Fulton St,1,In Service,False,31
3233,,35,2,,3233,,2016-02-03 02:42:43 PM,40.7572456791,,-73.9780591428,,E 48 St & 5 Ave,,E 48 St & 5 Ave,1,In Service,False,37
3235,,12,19,,3235,,2016-02-03 02:42:53 PM,40.7521652806,,-73.979921937,,E 41 St & Madison Ave,,E 41 St & Madison Ave,1,In Service,False,31
3236,,0,9,,3236,,2016-02-03 02:43:55 PM,40.758984814,,-73.9937996864,,PABT Valet,,PABT Valet,3,Not In Service,False,9
3237,,8,17,,3237,,2016-02-03 02:43:22 PM,40.7538334344,,-73.9426767826,,21 St & 41 Ave,,21 St & 41 Ave,1,In Service,False,25
3238,,0,37,,3238,,2016-02-03 02:45:32 PM,40.7739139024,,-73.9543953538,,E 80 St & 2 Ave,,E 80 St & 2 Ave,1,In Service,False,37
3241,,3,16,,3241,,2016-02-03 02:45:56 PM,40.686203,,-73.944694,,Monroe St & Tompkins Ave,,Monroe St & Tompkins Ave,1,In Service,False,19
3242,,25,14,,3242,,2016-02-03 02:43:20 PM,40.6910292568,,-73.9918336272,,Schermerhorn St & Court St,,Schermerhorn St & Court St,1,In Service,False,39
3243,,1,27,,3243,,2016-02-03 02:42:57 PM,40.7589238638,,-73.9622622728,,E 58 St & 1 Ave,,E 58 St & 1 Ave,1,In Service,False,28
3244,,18,12,,3244,,2016-02-03 02:43:25 PM,40.7314372409,,-73.9949034154,,University Pl & E 8 St,,University Pl & E 8 St,1,In Service,False,30
